[
  {
    "id": 26150422,
    "name": "Київ",
    "lat": 50.4500336,
    "lon": 30.5241361,
    "population": 2953,
    "tier": 1
  },
  {
    "id": 1685829423,
    "name": "Харків",
    "lat": 49.9923181,
    "lon": 36.2310146,
    "population": 1448,
    "tier": 1
  },
  {
    "id": 337597818,
    "name": "Дніпро",
    "lat": 48.4680221,
    "lon": 35.0417711,
    "population": 1081,
    "tier": 1
  },
  {
    "id": 26150437,
    "name": "Одеса",
    "lat": 46.4843023,
    "lon": 30.7322878,
    "population": 1009,
    "tier": 1
  },
  {
    "id": 39682896,
    "name": "Донецьк",
    "lat": 48.0158753,
    "lon": 37.8013407,
    "population": 930,
    "tier": 1
  },
  {
    "id": 26150791,
    "name": "Львів",
    "lat": 49.841952,
    "lon": 24.0315921,
    "population": 725,
    "tier": 2
  },
  {
    "id": 27122612,
    "name": "Запоріжжя",
    "lat": 47.8507859,
    "lon": 35.1182867,
    "population": 707,
    "tier": 2
  },
  {
    "id": 1532708613,
    "name": "Кривий Ріг",
    "lat": 47.9102734,
    "lon": 33.3917703,
    "population": 657,
    "tier": 2
  },
  {
    "id": 60410873,
    "name": "Миколаїв",
    "lat": 46.9758615,
    "lon": 31.9939666,
    "population": 481,
    "tier": 2
  },
  {
    "id": 251073791,
    "name": "Севастополь",
    "lat": 44.6054434,
    "lon": 33.5220842,
    "population": 459,
    "tier": 2
  },
  {
    "id": 29980666,
    "name": "Маріуполь",
    "lat": 47.0957648,
    "lon": 37.5499621,
    "population": 454,
    "tier": 2
  },
  {
    "id": 253874196,
    "name": "Луганськ",
    "lat": 48.5717084,
    "lon": 39.2973153,
    "population": 415,
    "tier": 2
  },
  {
    "id": 249748477,
    "name": "Вінниця",
    "lat": 49.2320162,
    "lon": 28.467975,
    "population": 374,
    "tier": 2
  },
  {
    "id": 256613930,
    "name": "Макіївка",
    "lat": 48.0448144,
    "lon": 37.9635093,
    "population": 348,
    "tier": 2
  },
  {
    "id": 252176252,
    "name": "Сімферополь",
    "lat": 44.9521459,
    "lon": 34.1024858,
    "population": 341,
    "tier": 2
  },
  {
    "id": 27121360,
    "name": "Полтава",
    "lat": 49.5897423,
    "lon": 34.5507948,
    "population": 298,
    "tier": 3
  },
  {
    "id": 255466573,
    "name": "Херсон",
    "lat": 46.6401295,
    "lon": 32.6143922,
    "population": 295,
    "tier": 3
  },
  {
    "id": 26150436,
    "name": "Чернігів",
    "lat": 51.494099,
    "lon": 31.294332,
    "population": 294,
    "tier": 3
  },
  {
    "id": 256613740,
    "name": "Горлівка",
    "lat": 48.3058686,
    "lon": 38.0027664,
    "population": 290,
    "tier": 3
  },
  {
    "id": 265056942,
    "name": "Черкаси",
    "lat": 49.4447056,
    "lon": 32.0588085,
    "population": 275,
    "tier": 3
  },
  {
    "id": 251223522,
    "name": "Хмельницький",
    "lat": 49.4196404,
    "lon": 26.9793793,
    "population": 270,
    "tier": 3
  },
  {
    "id": 265057614,
    "name": "Суми",
    "lat": 50.9119775,
    "lon": 34.8027723,
    "population": 268,
    "tier": 3
  },
  {
    "id": 252098339,
    "name": "Житомир",
    "lat": 50.2601065,
    "lon": 28.6696281,
    "population": 268,
    "tier": 3
  },
  {
    "id": 428339505,
    "name": "Чернівці",
    "lat": 48.2864702,
    "lon": 25.9376532,
    "population": 267,
    "tier": 3
  },
  {
    "id": 146541158,
    "name": "Рівне",
    "lat": 50.6196175,
    "lon": 26.2513165,
    "population": 246,
    "tier": 3
  },
  {
    "id": 1756064253,
    "name": "Кам’янське",
    "lat": 48.5167748,
    "lon": 34.6068797,
    "population": 240,
    "tier": 3
  },
  {
    "id": 4126283179,
    "name": "Кропивницький",
    "lat": 48.5105805,
    "lon": 32.2656283,
    "population": 235,
    "tier": 3
  },
  {
    "id": 268459612,
    "name": "Івано-Франківськ",
    "lat": 48.9224763,
    "lon": 24.710334,
    "population": 231,
    "tier": 3
  },
  {
    "id": 265058149,
    "name": "Кременчук",
    "lat": 49.0629553,
    "lon": 33.403516,
    "population": 227,
    "tier": 3
  },
  {
    "id": 146570870,
    "name": "Луцьк",
    "lat": 50.7450733,
    "lon": 25.320078,
    "population": 218,
    "tier": 3
  },
  {
    "id": 1643945522,
    "name": "Тернопіль",
    "lat": 49.5557908,
    "lon": 25.5923753,
    "population": 218,
    "tier": 3
  },
  {
    "id": 255259998,
    "name": "Біла Церква",
    "lat": 49.7969703,
    "lon": 30.1158069,
    "population": 210,
    "tier": 3
  },
  {
    "id": 274929523,
    "name": "Краматорськ",
    "lat": 48.7389415,
    "lon": 37.5843812,
    "population": 160,
    "tier": 3
  },
  {
    "id": 1756064266,
    "name": "Мелітополь",
    "lat": 46.8467267,
    "lon": 35.3827281,
    "population": 157,
    "tier": 3
  },
  {
    "id": 1830695012,
    "name": "Керч",
    "lat": 45.3563405,
    "lon": 36.467061,
    "population": 152,
    "tier": 3
  },
  {
    "id": 265058407,
    "name": "Нікополь",
    "lat": 47.5692061,
    "lon": 34.3917272,
    "population": 120,
    "tier": 3
  },
  {
    "id": 258057686,
    "name": "Бердянськ",
    "lat": 46.755678,
    "lon": 36.7887623,
    "population": 117,
    "tier": 3
  },
  {
    "id": 111353560,
    "name": "Ужгород",
    "lat": 48.6223731,
    "lon": 22.3022572,
    "population": 115,
    "tier": 3
  },
  {
    "id": 256613986,
    "name": "Слов’янськ",
    "lat": 48.8522691,
    "lon": 37.6058241,
    "population": 115,
    "tier": 3
  },
  {
    "id": 253877159,
    "name": "Алчевськ",
    "lat": 48.4701987,
    "lon": 38.8010178,
    "population": 113,
    "tier": 3
  },
  {
    "id": 337579368,
    "name": "Сіверськодонецьк",
    "lat": 48.9478698,
    "lon": 38.4936475,
    "population": 111,
    "tier": 3
  },
  {
    "id": 265059962,
    "name": "Павлоград",
    "lat": 48.5316759,
    "lon": 35.8703695,
    "population": 111,
    "tier": 3
  },
  {
    "id": 27212295,
    "name": "Євпаторія",
    "lat": 45.1907635,
    "lon": 33.3679049,
    "population": 109,
    "tier": 3
  },
  {
    "id": 3673183717,
    "name": "Бровари",
    "lat": 50.5111168,
    "lon": 30.7900482,
    "population": 108,
    "tier": 3
  },
  {
    "id": 337582086,
    "name": "Лисичанськ",
    "lat": 48.917267,
    "lon": 38.4285981,
    "population": 106,
    "tier": 3
  },
  {
    "id": 268081010,
    "name": "Кам'янець-Подільський",
    "lat": 48.6781294,
    "lon": 26.5854027,
    "population": 102,
    "tier": 3
  },
  {
    "id": 337510526,
    "name": "Конотоп",
    "lat": 51.2397495,
    "lon": 33.206675,
    "population": 88,
    "tier": 3
  },
  {
    "id": 248777764,
    "name": "Умань",
    "lat": 48.7497621,
    "lon": 30.2203052,
    "population": 87,
    "tier": 3
  },
  {
    "id": 1756064259,
    "name": "Єнакієве",
    "lat": 48.2305107,
    "lon": 38.185045,
    "population": 86,
    "tier": 3
  },
  {
    "id": 337598436,
    "name": "Мукачево",
    "lat": 48.4421119,
    "lon": 22.7185408,
    "population": 86,
    "tier": 3
  },
  {
    "id": 337658682,
    "name": "Хрустальний",
    "lat": 48.1351471,
    "lon": 38.9198948,
    "population": 85,
    "tier": 3
  },
  {
    "id": 2135849341,
    "name": "Ровеньки",
    "lat": 48.0897987,
    "lon": 39.368029,
    "population": 82,
    "tier": 3
  },
  {
    "id": 337504305,
    "name": "Шостка",
    "lat": 51.864355,
    "lon": 33.4728542,
    "population": 80,
    "tier": 3
  },
  {
    "id": 337589760,
    "name": "Олександрія",
    "lat": 48.670609,
    "lon": 33.1169742,
    "population": 80,
    "tier": 3
  },
  {
    "id": 337593799,
    "name": "Кадіївка",
    "lat": 48.5595971,
    "lon": 38.6499847,
    "population": 80,
    "tier": 3
  },
  {
    "id": 337541446,
    "name": "Бердичів",
    "lat": 49.8940442,
    "lon": 28.5814912,
    "population": 79,
    "tier": 3
  },
  {
    "id": 256613898,
    "name": "Костянтинівка",
    "lat": 48.534905,
    "lon": 37.6923754,
    "population": 79,
    "tier": 3
  },
  {
    "id": 1830695013,
    "name": "Ялта",
    "lat": 44.4987874,
    "lon": 34.1689358,
    "population": 78,
    "tier": 3
  },
  {
    "id": 313248206,
    "name": "Дрогобич",
    "lat": 49.3513996,
    "lon": 23.5061662,
    "population": 75,
    "tier": 3
  },
  {
    "id": 337696139,
    "name": "Ізмаїл",
    "lat": 45.3511307,
    "lon": 28.8361514,
    "population": 75,
    "tier": 3
  },
  {
    "id": 337512379,
    "name": "Ніжин",
    "lat": 51.0464747,
    "lon": 31.8806289,
    "population": 75,
    "tier": 3
  },
  {
    "id": 337581295,
    "name": "Лозова",
    "lat": 48.8842428,
    "lon": 36.3160254,
    "population": 72,
    "tier": 3
  },
  {
    "id": 146651245,
    "name": "Ковель",
    "lat": 51.2120807,
    "lon": 24.7088806,
    "population": 69,
    "tier": 3
  },
  {
    "id": 337566618,
    "name": "Сміла",
    "lat": 49.2336897,
    "lon": 31.8829216,
    "population": 69,
    "tier": 3
  },
  {
    "id": 260943265,
    "name": "Шептицький",
    "lat": 50.3940289,
    "lon": 24.2396098,
    "population": 69,
    "tier": 3
  },
  {
    "id": 1830695011,
    "name": "Феодосія",
    "lat": 45.033669,
    "lon": 35.3753628,
    "population": 68,
    "tier": 3
  },
  {
    "id": 312270776,
    "name": "Калуш",
    "lat": 49.028894,
    "lon": 24.3613198,
    "population": 68,
    "tier": 3
  },
  {
    "id": 337661270,
    "name": "Первомайськ",
    "lat": 48.045745,
    "lon": 30.8475997,
    "population": 67,
    "tier": 3
  },
  {
    "id": 337660247,
    "name": "Довжанськ",
    "lat": 48.0811324,
    "lon": 39.642561,
    "population": 66,
    "tier": 3
  },
  {
    "id": 337513583,
    "name": "Коростень",
    "lat": 50.9491068,
    "lon": 28.6417552,
    "population": 66,
    "tier": 3
  },
  {
    "id": 256613916,
    "name": "Покровськ",
    "lat": 48.2771086,
    "lon": 37.1772482,
    "population": 64,
    "tier": 3
  },
  {
    "id": 284716726,
    "name": "Коломия",
    "lat": 48.5259211,
    "lon": 25.0380538,
    "population": 62,
    "tier": 3
  },
  {
    "id": 337576644,
    "name": "Рубіжне",
    "lat": 49.0329045,
    "lon": 38.3725819,
    "population": 61,
    "tier": 3
  },
  {
    "id": 256613834,
    "name": "Дружківка",
    "lat": 48.6198614,
    "lon": 37.524945,
    "population": 61,
    "tier": 3
  },
  {
    "id": 256614069,
    "name": "Харцизьк",
    "lat": 48.0339524,
    "lon": 38.149804,
    "population": 61,
    "tier": 3
  },
  {
    "id": 256614098,
    "name": "Шахтарськ",
    "lat": 48.0550423,
    "lon": 38.4459474,
    "population": 60,
    "tier": 3
  },
  {
    "id": 247880583,
    "name": "Стрий",
    "lat": 49.255875,
    "lon": 23.8530863,
    "population": 60,
    "tier": 3
  },
  {
    "id": 337690843,
    "name": "Чорноморськ",
    "lat": 46.3013422,
    "lon": 30.6549271,
    "population": 60,
    "tier": 3
  },
  {
    "id": 1105432954,
    "name": "Прилуки",
    "lat": 50.5950864,
    "lon": 32.3866658,
    "population": 59,
    "tier": 3
  },
  {
    "id": 337548383,
    "name": "Куп’янськ",
    "lat": 49.7132963,
    "lon": 37.6141992,
    "population": 59,
    "tier": 3
  },
  {
    "id": 26150796,
    "name": "Бориспіль",
    "lat": 50.3512101,
    "lon": 30.95077,
    "population": 59,
    "tier": 3
  },
  {
    "id": 259980476,
    "name": "Нововолинськ",
    "lat": 50.7224829,
    "lon": 24.1648399,
    "population": 58,
    "tier": 3
  },
  {
    "id": 146498192,
    "name": "Звягель",
    "lat": 50.5917622,
    "lon": 27.6066973,
    "population": 57,
    "tier": 3
  },
  {
    "id": 256614002,
    "name": "Чистякове",
    "lat": 48.0261217,
    "lon": 38.618137,
    "population": 56,
    "tier": 3
  },
  {
    "id": 337659186,
    "name": "Антрацит",
    "lat": 48.1164285,
    "lon": 39.0886375,
    "population": 56,
    "tier": 3
  },
  {
    "id": 337675469,
    "name": "Енергодар",
    "lat": 47.4900575,
    "lon": 34.6602709,
    "population": 55,
    "tier": 3
  },
  {
    "id": 337568004,
    "name": "Ізюм",
    "lat": 49.1913202,
    "lon": 37.2784093,
    "population": 52,
    "tier": 3
  },
  {
    "id": 337575116,
    "name": "Горішні Плавні",
    "lat": 49.0140647,
    "lon": 33.6330875,
    "population": 52,
    "tier": 3
  },
  {
    "id": 337535126,
    "name": "Фастів",
    "lat": 50.0799307,
    "lon": 29.9162821,
    "population": 51,
    "tier": 3
  },
  {
    "id": 738536340,
    "name": "Білгород-Дністровський",
    "lat": 46.1909823,
    "lon": 30.345784,
    "population": 51,
    "tier": 3
  },
  {
    "id": 256613817,
    "name": "Мирноград",
    "lat": 48.30791,
    "lon": 37.2591,
    "population": 50,
    "tier": 3
  },
  {
    "id": 337524775,
    "name": "Охтирка",
    "lat": 50.3115386,
    "lon": 34.8868923,
    "population": 50,
    "tier": 3
  },
  {
    "id": 337672919,
    "name": "Марганець",
    "lat": 47.6490555,
    "lon": 34.649194,
    "population": 49,
    "tier": 3
  },
  {
    "id": 337601052,
    "name": "Жовті Води",
    "lat": 48.3465174,
    "lon": 33.5027797,
    "population": 49,
    "tier": 3
  },
  {
    "id": 337596242,
    "name": "Брянка",
    "lat": 48.50361,
    "lon": 38.66432,
    "population": 49,
    "tier": 3
  },
  {
    "id": 337687341,
    "name": "Нова Каховка",
    "lat": 46.7583404,
    "lon": 33.3566678,
    "population": 49,
    "tier": 3
  },
  {
    "id": 286421994,
    "name": "Лубни",
    "lat": 50.0118206,
    "lon": 33.0030821,
    "population": 48,
    "tier": 3
  },
  {
    "id": 256613983,
    "name": "Сніжне",
    "lat": 48.0220754,
    "lon": 38.7634612,
    "population": 47,
    "tier": 3
  },
  {
    "id": 337603049,
    "name": "Сорокине",
    "lat": 48.2951425,
    "lon": 39.7296737,
    "population": 45,
    "tier": 3
  },
  {
    "id": 313245343,
    "name": "Шепетівка",
    "lat": 50.1809437,
    "lon": 27.0651783,
    "population": 44,
    "tier": 3
  },
  {
    "id": 337516855,
    "name": "Ромни",
    "lat": 50.74207,
    "lon": 33.4877,
    "population": 44,
    "tier": 3
  },
  {
    "id": 269665736,
    "name": "Вараш",
    "lat": 51.3481736,
    "lon": 25.8500623,
    "population": 44,
    "tier": 3
  },
  {
    "id": 337574659,
    "name": "Світловодськ",
    "lat": 49.04537,
    "lon": 33.20721,
    "population": 44,
    "tier": 3
  },
  {
    "id": 337672630,
    "name": "Покров",
    "lat": 47.6546589,
    "lon": 34.1149341,
    "population": 42,
    "tier": 3
  },
  {
    "id": 36505064,
    "name": "Ірпінь",
    "lat": 50.5206777,
    "lon": 30.2448725,
    "population": 42,
    "tier": 3
  },
  {
    "id": 337538836,
    "name": "Миргород",
    "lat": 49.9658333,
    "lon": 33.6113889,
    "population": 42,
    "tier": 3
  },
  {
    "id": 337670266,
    "name": "Подільськ",
    "lat": 47.7497422,
    "lon": 29.5304957,
    "population": 41,
    "tier": 3
  },
  {
    "id": 337668729,
    "name": "Південноукраїнськ",
    "lat": 47.824269,
    "lon": 31.1786814,
    "population": 41,
    "tier": 3
  }
]